[{
  "_id": {
    "$oid": "62ca2467bed1d8884b924420"
  },
  "name": "Acadia",
  "state": "ME",
  "lat": "44.338974",
  "lon": "-68.273430",
  "image": "acadia.png"
},{
  "_id": {
    "$oid": "62ca2467bed1d8884b924421"
  },
  "name": "American Samoa",
  "state": "AS",
  "lat": "-14.25",
  "lon": "-170.68",
  "image": "americansamoa.png"
},{
  "_id": {
    "$oid": "62ca2467bed1d8884b924422"
  },
  "name": "Arches",
  "state": "UT",
  "lat": "38.733082",
  "lon": "-109.592514",
  "image": "arches.png"
},{
  "_id": {
    "$oid": "62ca2467bed1d8884b924423"
  },
  "name": "Badlands",
  "state": "SD",
  "lat": "43.75",
  "lon": "-102.5",
  "image": "badlands.png"
},{
  "_id": {
    "$oid": "62ca2467bed1d8884b924424"
  },
  "name": "Big Bend",
  "state": "TX",
  "lat": "29.25",
  "lon": "-103.25",
  "image": "bigbend.png"
},{
  "_id": {
    "$oid": "62ca2467bed1d8884b924425"
  },
  "name": "Biscayne",
  "state": "FL",
  "lat": "25.65",
  "lon": "-80.08",
  "image": "biscayne.png"
},{
  "_id": {
    "$oid": "62ca2467bed1d8884b924426"
  },
  "name": "Black Canyon of the Gunnison",
  "state": "CO",
  "lat": "38.57",
  "lon": "-107.72",
  "image": "gunnison.png"
},{
  "_id": {
    "$oid": "62ca2467bed1d8884b924427"
  },
  "name": "Bryce Canyon",
  "state": "UT",
  "lat": "37.593048",
  "lon": "-112.187332",
  "image": "bryce.png"
},{
  "_id": {
    "$oid": "62ca2467bed1d8884b924428"
  },
  "name": "Canyonlands",
  "state": "UT",
  "lat": "38.2",
  "lon": "-109.93",
  "image": "canyonlands.png"
},{
  "_id": {
    "$oid": "62ca2467bed1d8884b924429"
  },
  "name": "Capitol Reef",
  "state": "UT",
  "lat": "38.089600",
  "lon": "-111.149910",
  "image": "capitolreef.png"
},{
  "_id": {
    "$oid": "62ca2467bed1d8884b92442a"
  },
  "name": "Carlsbad Caverns",
  "state": "NM",
  "lat": "32.17",
  "lon": "-104.44",
  "image": "carlsbad.png"
},{
  "_id": {
    "$oid": "62ca2467bed1d8884b92442b"
  },
  "name": "Channel Islands",
  "state": "CA",
  "lat": "33.998028",
  "lon": "-119.772949",
  "image": "channelislands.png"
},{
  "_id": {
    "$oid": "62ca2467bed1d8884b92442c"
  },
  "name": "Congaree",
  "state": "SC",
  "lat": "33.78",
  "lon": "-80.78",
  "image": "congaree.png"
},{
  "_id": {
    "$oid": "62ca2467bed1d8884b92442d"
  },
  "name": "Crater Lake",
  "state": "OR",
  "lat": "42.94",
  "lon": "-122.1",
  "image": "craterlake.png"
},{
  "_id": {
    "$oid": "62ca2467bed1d8884b92442e"
  },
  "name": "Cuyahoga Valley",
  "state": "OH",
  "lat": "41.24",
  "lon": "-81.55",
  "image": "cuyahogavalley.png"
},{
  "_id": {
    "$oid": "62ca2467bed1d8884b92442f"
  },
  "name": "Death Valley",
  "state": "CA",
  "lat": "36.24",
  "lon": "-116.82",
  "image": "deathvalley.png"
},{
  "_id": {
    "$oid": "62ca2467bed1d8884b924430"
  },
  "name": "Denali",
  "state": "AK",
  "lat": "63.129887",
  "lon": "-151.197418",
  "image": "denali.png"
},{
  "_id": {
    "$oid": "62ca2467bed1d8884b924431"
  },
  "name": "Dry Tortugas",
  "state": "FL",
  "lat": "24.63",
  "lon": "-82.87",
  "image": "drytortugas.png"
},{
  "_id": {
    "$oid": "62ca2467bed1d8884b924432"
  },
  "name": "Everglades",
  "state": "FL",
  "lat": "25.286615",
  "lon": "-80.898651",
  "image": "everglades.png"
},{
  "_id": {
    "$oid": "62ca2467bed1d8884b924433"
  },
  "name": "Gates of the Arctic",
  "state": "AK",
  "lat": "67.915199",
  "lon": "-153.463730",
  "image": "gatesofthearctic.png"
},{
  "_id": {
    "$oid": "62ca2467bed1d8884b924434"
  },
  "name": "Gateway Arch",
  "state": "MO",
  "lat": "38.63",
  "lon": "-90.19",
  "image": "gatewayarch.png"
},{
  "_id": {
    "$oid": "62ca2467bed1d8884b924435"
  },
  "name": "Glacier",
  "state": "MT",
  "lat": "48.8",
  "lon": "-114",
  "image": "glacier.png"
},{
  "_id": {
    "$oid": "62ca2467bed1d8884b924436"
  },
  "name": "Glacier Bay",
  "state": "AK",
  "lat": "58.665806",
  "lon": "-136.900208",
  "image": "glacierbay.png"
},{
  "_id": {
    "$oid": "62ca2467bed1d8884b924437"
  },
  "name": "Grand Canyon",
  "state": "AZ",
  "lat": "36.06",
  "lon": "-112.14",
  "image": "grandcanyon.png"
},{
  "_id": {
    "$oid": "62ca2467bed1d8884b924438"
  },
  "name": "Grand Teton",
  "state": "WY",
  "lat": "43.73",
  "lon": "-110.8",
  "image": "grandteton.png"
},{
  "_id": {
    "$oid": "62ca2467bed1d8884b924439"
  },
  "name": "Great Basin",
  "state": "NV",
  "lat": "38.98",
  "lon": "-114.3",
  "image": "greatbasin.png"
},{
  "_id": {
    "$oid": "62ca2467bed1d8884b92443a"
  },
  "name": "Great Sand Dunes",
  "state": "CO",
  "lat": "37.73",
  "lon": "-105.51",
  "image": "sanddunes.png"
},{
  "_id": {
    "$oid": "62ca2467bed1d8884b92443b"
  },
  "name": "Great Smoky Mountains",
  "state": "NC/TN",
  "lat": "35.611763",
  "lon": "-83.489548",
  "image": "smokys.png"
},{
  "_id": {
    "$oid": "62ca2467bed1d8884b92443c"
  },
  "name": "Guadalupe Mountains",
  "state": "TX",
  "lat": "31.92",
  "lon": "-104.87",
  "image": "guadalupe.png"
},{
  "_id": {
    "$oid": "62ca2467bed1d8884b92443d"
  },
  "name": "Halealaka",
  "state": "HI",
  "lat": "20.701283",
  "lon": "-156.173325",
  "image": "halealaka.png"
},{
  "_id": {
    "$oid": "62ca2467bed1d8884b92443e"
  },
  "name": "Hawai'i Volcanoes",
  "state": "HI",
  "lat": "19.38",
  "lon": "-155.2",
  "image": "volcanoes.png"
},{
  "_id": {
    "$oid": "62ca2467bed1d8884b92443f"
  },
  "name": "Hot Springs",
  "state": "AR",
  "lat": "34.521530",
  "lon": "-93.042267",
  "image": "hotsprings.png"
},{
  "_id": {
    "$oid": "62ca2467bed1d8884b924440"
  },
  "name": "Indiana Dunes",
  "state": "IN",
  "lat": "41.6533",
  "lon": "-87.0524",
  "image": "indianadunes.png"
},{
  "_id": {
    "$oid": "62ca2467bed1d8884b924441"
  },
  "name": "Isle Royale",
  "state": "MI",
  "lat": "48.1",
  "lon": "-88.55",
  "image": "isleroyale.png"
},{
  "_id": {
    "$oid": "62ca2467bed1d8884b924442"
  },
  "name": "Joshua Tree",
  "state": "CA",
  "lat": "33.881866",
  "lon": "-115.900650",
  "image": "joshuatree.png"
},{
  "_id": {
    "$oid": "62ca2467bed1d8884b924443"
  },
  "name": "Katmai",
  "state": "AK",
  "lat": "58.597813",
  "lon": "-154.693756",
  "image": "katmai.png"
},{
  "_id": {
    "$oid": "62ca2467bed1d8884b924444"
  },
  "name": "Kenai Fjords",
  "state": "AK",
  "lat": "60.043777",
  "lon": "-149.816360",
  "image": "kenaifjords.png"
},{
  "_id": {
    "$oid": "62ca2467bed1d8884b924445"
  },
  "name": "King's Canyon",
  "state": "CA",
  "lat": "36.887856",
  "lon": "-118.555145",
  "image": "kingscanyon.png"
},{
  "_id": {
    "$oid": "62ca2467bed1d8884b924446"
  },
  "name": "Kobuk Valley",
  "state": "AK",
  "lat": "67.55",
  "lon": "-159.28",
  "image": "kobukvalley.png"
},{
  "_id": {
    "$oid": "62ca2467bed1d8884b924447"
  },
  "name": "Lake Clark",
  "state": "AK",
  "lat": "60.412697",
  "lon": "-154.323502",
  "image": "lakeclark.png"
},{
  "_id": {
    "$oid": "62ca2467bed1d8884b924448"
  },
  "name": "Lassen Volcanic",
  "state": "CA",
  "lat": "40.49",
  "lon": "-121.51",
  "image": "lassen.png"
},{
  "_id": {
    "$oid": "62ca2467bed1d8884b924449"
  },
  "name": "Mammoth Cave",
  "state": "KY",
  "lat": "37.183640",
  "lon": "-86.159943",
  "image": "mammothcave.png"
},{
  "_id": {
    "$oid": "62ca2467bed1d8884b92444a"
  },
  "name": "Mesa Verde",
  "state": "CO",
  "lat": "37.230873",
  "lon": "-108.461838",
  "image": "mesaverde.png"
},{
  "_id": {
    "$oid": "62ca2467bed1d8884b92444b"
  },
  "name": "Mount Ranier",
  "state": "WA",
  "lat": "46.879967",
  "lon": "-121.726906",
  "image": "ranier.png"
},{
  "_id": {
    "$oid": "62ca2467bed1d8884b92444c"
  },
  "name": "New River Gorge",
  "state": "WV",
  "lat": "38.07",
  "lon": "-81.08",
  "image": "newrivergorge.png"
},{
  "_id": {
    "$oid": "62ca2467bed1d8884b92444d"
  },
  "name": "North Cascades",
  "state": "WA",
  "lat": "48.7",
  "lon": "-121.2",
  "image": "cascades.png"
},{
  "_id": {
    "$oid": "62ca2467bed1d8884b92444e"
  },
  "name": "Olympic",
  "state": "WA",
  "lat": "47.97",
  "lon": "-123.5",
  "image": "olympic.png"
},{
  "_id": {
    "$oid": "62ca2467bed1d8884b92444f"
  },
  "name": "Petrified Forest",
  "state": "AZ",
  "lat": "34.909988",
  "lon": "-109.806793",
  "image": "petrifiedforest.png"
},{
  "_id": {
    "$oid": "62ca2467bed1d8884b924450"
  },
  "name": "Pinnacles",
  "state": "CA",
  "lat": "36.491508",
  "lon": "-121.197243",
  "image": "pinnacles.png"
},{
  "_id": {
    "$oid": "62ca2467bed1d8884b924451"
  },
  "name": "Redwood",
  "state": "CA",
  "lat": "41.213181",
  "lon": "-124.004631",
  "image": "redwood.png"
},{
  "_id": {
    "$oid": "62ca2467bed1d8884b924452"
  },
  "name": "Rocky Mountain",
  "state": "CO",
  "lat": "40.343182",
  "lon": "-105.688103",
  "image": "rockymountain.png"
},{
  "_id": {
    "$oid": "62ca2467bed1d8884b924453"
  },
  "name": "Saguaro",
  "state": "AZ",
  "lat": "32.25",
  "lon": "-110.5",
  "image": "saguaro.png"
},{
  "_id": {
    "$oid": "62ca2467bed1d8884b924454"
  },
  "name": "Sequoia",
  "state": "CA",
  "lat": "36.43",
  "lon": "-118.68",
  "image": "sequoia.png"
},{
  "_id": {
    "$oid": "62ca2467bed1d8884b924455"
  },
  "name": "Shenandoah",
  "state": "VA",
  "lat": "38.700516",
  "lon": "-78.292694",
  "image": "shenandoah.png"
},{
  "_id": {
    "$oid": "62ca2467bed1d8884b924456"
  },
  "name": "Teddy Roosevelt",
  "state": "ND",
  "lat": "46.97",
  "lon": "-103.45",
  "image": "teddyroosevelt.png"
},{
  "_id": {
    "$oid": "62ca2467bed1d8884b924457"
  },
  "name": "Virgin Islands",
  "state": "VI",
  "lat": "18.33",
  "lon": "-64.73",
  "image": "virginislands.png"
},{
  "_id": {
    "$oid": "62ca2467bed1d8884b924458"
  },
  "name": "Voyageurs",
  "state": "MN",
  "lat": "48.5",
  "lon": "-92.88",
  "image": "voyageurs.png"
},{
  "_id": {
    "$oid": "62ca2467bed1d8884b924459"
  },
  "name": "White Sands",
  "state": "NM",
  "lat": "32.779720",
  "lon": "-106.171669",
  "image": "whitesands.png"
},{
  "_id": {
    "$oid": "62ca2467bed1d8884b92445a"
  },
  "name": "Wind Cave",
  "state": "SD",
  "lat": "43.57",
  "lon": "-103.48",
  "image": "windcave.png"
},{
  "_id": {
    "$oid": "62ca2467bed1d8884b92445b"
  },
  "name": "Wrangell-St Elias",
  "state": "AK",
  "lat": "61.710445",
  "lon": "-142.985687",
  "image": "wrangellstelias.png"
},{
  "_id": {
    "$oid": "62ca2467bed1d8884b92445c"
  },
  "name": "Yellowstone",
  "state": "WY",
  "lat": "44.427895",
  "lon": "-110.588379",
  "image": "yellowstone.png"
},{
  "_id": {
    "$oid": "62ca2467bed1d8884b92445d"
  },
  "name": "Yosemite",
  "state": "CA",
  "lat": "37.865101",
  "lon": "-119.538330",
  "image": "yosemite.png"
},{
  "_id": {
    "$oid": "62ca2467bed1d8884b92445e"
  },
  "name": "Zion",
  "state": "UT",
  "lat": "37.297817",
  "lon": "-113.028770",
  "image": "zion.png"
}]